[
  {
    "id": 101,
    "category": "Вывоз мусора",
    "address": "ул. Абая, 45",
    "status": "В работе",
    "created_at": "2025-11-01",
    "description": "Не вывезен мусор с контейнерной площадки",
    "latitude": 53.2205,
    "longitude": 63.6283
  },
  {
    "id": 102,
    "category": "Освещение улиц",
    "address": "пр. Аль-Фараби, 10",
    "status": "Решено",
    "created_at": "2025-10-28",
    "description": "Не горит фонарь во дворе",
    "latitude": 53.2156,
    "longitude": 63.6209
  },
  {
    "id": 103,
    "category": "Вывоз мусора",
    "address": "ул. Тауельсиздик, 12",
    "status": "Отклонено",
    "created_at": "2025-11-05",
    "description": "Мусор не вывезли с контейнерной площадки",
    "latitude": 53.2210,
    "longitude": 63.6290
  },
  {
    "id": 104,
    "category": "Освещение улиц",
    "address": "ул. Абая, 78",
    "status": "В работе",
    "created_at": "2025-11-02",
    "description": "Не работает уличный фонарь",
    "latitude": 53.2195,
    "longitude": 63.6250
  },
  {
    "id": 105,
    "category": "Вывоз мусора",
    "address": "пр. Гагарина, 21",
    "status": "Решено",
    "created_at": "2025-11-03",
    "description": "Мусор не вывезли вовремя",
    "latitude": 53.2170,
    "longitude": 63.6225
  },
  {
    "id": 106,
    "category": "Освещение улиц",
    "address": "ул. Курмангазы, 34",
    "status": "Отклонено",
    "created_at": "2025-10-30",
    "description": "Фонарь не горит в вечернее время",
    "latitude": 53.2182,
    "longitude": 63.6278
  },
  {
    "id": 107,
    "category": "Вывоз мусора",
    "address": "ул. Достык, 56",
    "status": "В работе",
    "created_at": "2025-11-04",
    "description": "Мусорная площадка переполнена",
    "latitude": 53.2220,
    "longitude": 63.6305
  },
  {
    "id": 108,
    "category": "Освещение улиц",
    "address": "пр. Абылай хана, 11",
    "status": "Решено",
    "created_at": "2025-10-29",
    "description": "Не работает фонарь во дворе",
    "latitude": 53.2160,
    "longitude": 63.6210
  },
  {
    "id": 109,
    "category": "Вывоз мусора",
    "address": "ул. Кунаева, 7",
    "status": "Отклонено",
    "created_at": "2025-11-06",
    "description": "Контейнерная площадка требует уборки",
    "latitude": 53.2230,
    "longitude": 63.6320
  },
  {
    "id": 110,
    "category": "Освещение улиц",
    "address": "ул. Панфилова, 19",
    "status": "В работе",
    "created_at": "2025-11-01",
    "description": "Фонарь не загорается ночью",
    "latitude": 53.2175,
    "longitude": 63.6240
  },
  {
    "id": 111,
    "category": "Вывоз мусора",
    "address": "пр. Абая, 50",
    "status": "Решено",
    "created_at": "2025-11-07",
    "description": "Не вывезен мусор вовремя",
    "latitude": 53.2215,
    "longitude": 63.6295
  },
  {
    "id": 112,
    "category": "Освещение улиц",
    "address": "ул. Сейфуллина, 28",
    "status": "Отклонено",
    "created_at": "2025-10-31",
    "description": "Не горит фонарь в подъезде",
    "latitude": 53.2188,
    "longitude": 63.6265
  }
]
